<?xml version="1.0" encoding="UTF-8"?>
<kml xmlns="http://www.opengis.net/kml/2.2">
<Document>
  <Placemark>
    <name>stamford hill</name>
    <Point>
      <coordinates>-0.246190,51.494935,0</coordinates>
    </Point>
  </Placemark>
  <Placemark>
    <name>oxford circus</name>
    <Point>
      <coordinates>-0.141190,51.515170,0</coordinates>
    </Point>
  </Placemark>
  <Placemark>
    <name>charing cross</name>
    <Point>
      <coordinates>-0.122963,51.507108,0</coordinates>
    </Point>
  </Placemark>
  <Placemark>
    <name>covent garden</name>
    <Point>
      <coordinates>-0.124270,51.513080,0</coordinates>
    </Point>
  </Placemark>
  <Placemark>
    <name>trafalgar square</name>
    <Point>
      <coordinates>0.128100,51.508100,0</coordinates>
    </Point>
  </Placemark>
  <Placemark>
    <name>notting hill gate</name>
    <Point>
      <coordinates>-0.196285,51.509028,0</coordinates>
    </Point>
  </Placemark>
  <Placemark>
    <name>picadilly circus</name>
    <Point>
      <coordinates>-0.133920,51.510220,0</coordinates>
    </Point>
  </Placemark>
  <Placemark>
    <name>hyde park corner</name>
    <Point>
      <coordinates>-0.152780,51.503130,0</coordinates>
    </Point>
  </Placemark>
  <Placemark>
    <name>lancaster gate</name>
    <Point>
      <coordinates>-0.175067,51.512083,0</coordinates>
    </Point>
  </Placemark>
  <Placemark>
    <name>regent's park</name>
    <Point>
      <coordinates>-0.147130,51.523440,0</coordinates>
    </Point>
  </Placemark>
  <Placemark>
    <name>bond street</name>
    <Point>
      <coordinates>-0.148970,51.514610,0</coordinates>
    </Point>
  </Placemark>
  <Placemark>
    <name>knightsbridge</name>
    <Point>
      <coordinates>-0.160300,51.501690,0</coordinates>
    </Point>
  </Placemark>
  <Placemark>
    <name>mansion house</name>
    <Point>
      <coordinates>-0.093970,51.512560,0</coordinates>
    </Point>
  </Placemark>
</Document>
</kml>
